[{"id":1,"city":"Karachi","lat":"24.9056","lng":"67.0822"},{"id":2,"city":"Lahore","lat":"31.549722","lng":"74.343611"},{"id":3,"city":"Faisalābād","lat":"31.416667","lng":"73.083333"},{"id":4,"city":"Serai","lat":"34.73933","lng":"72.335655"},{"id":5,"city":"Rāwalpindi","lat":"33.597331","lng":"73.047904"},{"id":6,"city":"Multān","lat":"30.196789","lng":"71.478241"},{"id":7,"city":"Gujrānwāla","lat":"32.155667","lng":"74.187052"},{"id":8,"city":"Hyderābād City","lat":"25.396891","lng":"68.377183"},{"id":9,"city":"Peshāwar","lat":"34.008","lng":"71.578488"},{"id":10,"city":"Abbottābād","lat":"34.1463","lng":"73.211684"},{"id":11,"city":"Islamabad","lat":"33.69","lng":"73.0551"},{"id":12,"city":"Quetta","lat":"30.184138","lng":"67.00141"},{"id":13,"city":"Bannu","lat":"32.985414","lng":"70.602701"},{"id":14,"city":"Bahāwalpur","lat":"29.4","lng":"71.683333"},{"id":15,"city":"Sargodha","lat":"32.083611","lng":"72.671111"},{"id":16,"city":"Siālkot City","lat":"32.499101","lng":"74.52502"},{"id":17,"city":"Sukkur","lat":"27.705164","lng":"68.857383"},{"id":18,"city":"Lārkāna","lat":"27.558985","lng":"68.212035"},{"id":19,"city":"Sheikhupura","lat":"31.713056","lng":"73.978333"},{"id":20,"city":"Mīrpur Khās","lat":"25.5251","lng":"69.0159"},{"id":21,"city":"Rahīmyār Khān","lat":"28.419482","lng":"70.302386"},{"id":22,"city":"Kohāt","lat":"33.581958","lng":"71.449291"},{"id":23,"city":"Jhang Sadr","lat":"31.269811","lng":"72.316867"},{"id":24,"city":"Gujrāt","lat":"32.574204","lng":"74.075423"},{"id":25,"city":"Bardār","lat":"34.163737","lng":"72.011571"},{"id":26,"city":"Kasūr","lat":"31.115556","lng":"74.446667"},{"id":27,"city":"Dera Ghāzi Khān","lat":"30.056142","lng":"70.634766"},{"id":28,"city":"Masīwāla","lat":"30.683333","lng":"73.066667"},{"id":29,"city":"Nawābshāh","lat":"26.248334","lng":"68.409554"},{"id":30,"city":"Okāra","lat":"30.808056","lng":"73.445833"},{"id":31,"city":"Gilgit","lat":"35.920007","lng":"74.313656"},{"id":32,"city":"Chiniot","lat":"31.72","lng":"72.978889"},{"id":33,"city":"Sādiqābād","lat":"28.30623","lng":"70.130646"},{"id":34,"city":"Turbat","lat":"26.001224","lng":"63.048491"},{"id":35,"city":"Dera Ismāīl Khān","lat":"31.832691","lng":"70.902398"},{"id":36,"city":"Chaman","lat":"30.917689","lng":"66.45259"},{"id":37,"city":"Zhob","lat":"31.340817","lng":"69.449304"},{"id":38,"city":"Mehra","lat":"34.312817","lng":"73.220525"},{"id":39,"city":"Parachinār","lat":"33.895672","lng":"70.098875"},{"id":40,"city":"Gwādar","lat":"25.12163","lng":"62.325411"},{"id":41,"city":"Kundiān","lat":"32.457747","lng":"71.478918"},{"id":42,"city":"Shahdād Kot","lat":"27.847263","lng":"67.906789"},{"id":43,"city":"Harīpur","lat":"33.999967","lng":"72.934093"},{"id":44,"city":"Matiāri","lat":"25.59709","lng":"68.4467"},{"id":45,"city":"Dera Allāhyār","lat":"28.373529","lng":"68.350778"},{"id":46,"city":"Lodhrān","lat":"29.540507","lng":"71.63357"},{"id":47,"city":"Batgrām","lat":"34.679637","lng":"73.026299"},{"id":48,"city":"Thatta","lat":"24.747449","lng":"67.923528"},{"id":49,"city":"Bāgh","lat":"33.981106","lng":"73.776084"},{"id":50,"city":"Badīn","lat":"24.655995","lng":"68.836997"},{"id":51,"city":"Mānsehra","lat":"34.330232","lng":"73.196788"},{"id":52,"city":"Ziārat","lat":"30.382444","lng":"67.725624"},{"id":53,"city":"Muzaffargarh","lat":"30.072576","lng":"71.193788"},{"id":54,"city":"Tando Allāhyār","lat":"25.462626","lng":"68.719233"},{"id":55,"city":"Dera Murād Jamāli","lat":"28.546568","lng":"68.223081"},{"id":56,"city":"Karak","lat":"33.116334","lng":"71.093536"},{"id":57,"city":"Mardan","lat":"34.197943","lng":"72.04965"},{"id":58,"city":"Uthal","lat":"25.807222","lng":"66.621944"},{"id":59,"city":"Nankāna Sāhib","lat":"31.4475","lng":"73.697222"},{"id":60,"city":"Bārkhān","lat":"29.897727","lng":"69.525584"},{"id":61,"city":"Hāfizābād","lat":"32.067857","lng":"73.685449"},{"id":62,"city":"Kotli","lat":"33.518362","lng":"73.902203"},{"id":63,"city":"Loralai","lat":"30.370512","lng":"68.597949"},{"id":64,"city":"Dera Bugti","lat":"29.036188","lng":"69.158493"},{"id":65,"city":"Jhang City","lat":"31.305684","lng":"72.325941"},{"id":66,"city":"Sāhīwāl","lat":"30.666667","lng":"73.1"},{"id":67,"city":"Sānghar","lat":"26.046558","lng":"68.9481"},{"id":68,"city":"Pākpattan","lat":"30.341044","lng":"73.386642"},{"id":69,"city":"Chakwāl","lat":"32.933376","lng":"72.858531"},{"id":70,"city":"Khushāb","lat":"32.296667","lng":"72.3525"},{"id":71,"city":"Ghotki","lat":"28.00604","lng":"69.316077"},{"id":72,"city":"Kohlu","lat":"29.896505","lng":"69.253235"},{"id":73,"city":"Khuzdār","lat":"27.738385","lng":"66.643365"},{"id":74,"city":"Awārān","lat":"26.456768","lng":"65.231436"},{"id":75,"city":"Nowshera","lat":"34.015828","lng":"71.981232"},{"id":76,"city":"Chārsadda","lat":"34.148221","lng":"71.740604"},{"id":77,"city":"Qila Abdullāh","lat":"30.728035","lng":"66.661174"},{"id":78,"city":"Bahāwalnagar","lat":"29.998659","lng":"73.253604"},{"id":79,"city":"Dādu","lat":"26.730334","lng":"67.776896"},{"id":80,"city":"Alīābad","lat":"36.307028","lng":"74.615449"},{"id":81,"city":"Lakki Marwat","lat":"32.607953","lng":"70.911416"},{"id":82,"city":"Chilās","lat":"35.412867","lng":"74.104068"},{"id":83,"city":"Pishin","lat":"30.581762","lng":"66.994061"},{"id":84,"city":"Tānk","lat":"32.217071","lng":"70.383154"},{"id":85,"city":"Chitrāl","lat":"35.851802","lng":"71.786358"},{"id":86,"city":"Qila Saifullāh","lat":"30.700766","lng":"68.359843"},{"id":87,"city":"Shikārpur","lat":"27.957057","lng":"68.637886"},{"id":88,"city":"Panjgūr","lat":"26.971861","lng":"64.094594"},{"id":89,"city":"Mastung","lat":"29.799656","lng":"66.845527"},{"id":90,"city":"Kalāt","lat":"29.026629","lng":"66.593607"},{"id":91,"city":"Gandāvā","lat":"28.613207","lng":"67.485643"},{"id":92,"city":"Khānewāl","lat":"30.301731","lng":"71.932124"},{"id":93,"city":"Nārowāl","lat":"32.1","lng":"74.883333"},{"id":94,"city":"Khairpur","lat":"27.529483","lng":"68.761698"},{"id":95,"city":"Malakand","lat":"34.565609","lng":"71.930432"},{"id":96,"city":"Vihāri","lat":"30.033333","lng":"72.35"},{"id":97,"city":"Saidu Sharif","lat":"34.746548","lng":"72.355675"},{"id":98,"city":"Jhelum","lat":"32.934484","lng":"73.731018"},{"id":99,"city":"Mandi Bahāuddīn","lat":"32.587037","lng":"73.491231"},{"id":100,"city":"Bhakkar","lat":"31.625247","lng":"71.06574"},{"id":101,"city":"Toba Tek Singh","lat":"30.974326","lng":"72.482694"},{"id":102,"city":"Jāmshoro","lat":"25.436078","lng":"68.280172"},{"id":103,"city":"Khārān","lat":"28.584585","lng":"65.415007"},{"id":104,"city":"Umarkot","lat":"25.36157","lng":"69.736241"},{"id":105,"city":"Hangu","lat":"33.53198","lng":"71.059499"},{"id":106,"city":"Timargara","lat":"34.826595","lng":"71.844226"},{"id":107,"city":"Gākuch","lat":"36.176826","lng":"73.763834"},{"id":108,"city":"Jacobābād","lat":"28.281873","lng":"68.437613"},{"id":109,"city":"Alpūrai","lat":"34.920577","lng":"72.632556"},{"id":110,"city":"Miānwāli","lat":"32.574095","lng":"71.526386"},{"id":111,"city":"Mūsa Khel Bāzār","lat":"30.859443","lng":"69.82208"},{"id":112,"city":"Naushahro Fīroz","lat":"26.840104","lng":"68.122651"},{"id":113,"city":"New Mīrpur","lat":"33.147815","lng":"73.751867"},{"id":114,"city":"Daggar","lat":"34.511059","lng":"72.484375"},{"id":115,"city":"Eidgāh","lat":"35.347115","lng":"74.856317"},{"id":116,"city":"Sibi","lat":"29.542989","lng":"67.87726"},{"id":117,"city":"Dālbandīn","lat":"28.888456","lng":"64.406156"},{"id":118,"city":"Rājanpur","lat":"29.103513","lng":"70.325038"},{"id":119,"city":"Leiah","lat":"30.961279","lng":"70.939043"},{"id":120,"city":"Upper Dir","lat":"35.207398","lng":"71.876801"},{"id":121,"city":"Tando Muhammad Khān","lat":"25.123007","lng":"68.535773"},{"id":122,"city":"Attock City","lat":"33.76671","lng":"72.359766"},{"id":123,"city":"Rāwala Kot","lat":"33.857816","lng":"73.760426"},{"id":124,"city":"Swābi","lat":"34.120181","lng":"72.46982"},{"id":125,"city":"Kandhkot","lat":"28.243963","lng":"69.182354"},{"id":126,"city":"Dasu","lat":"35.291687","lng":"73.290602"},{"id":127,"city":"Athmuqam","lat":"34.571733","lng":"73.897236"}]